,City,Cloudiness,Country,Date,Humidity,Lat,Lng,Max Temp,Wind Speed
0,saskylakh,44,RU,1548700740,79,71.97,114.09,-38.36,3.18
1,punta arenas,40,CL,1548698400,91,-53.16,-70.91,55.4,26.4
2,beira,40,ES,1548698400,81,43.2,-8.36,50.0,4.7
3,torbay,90,CA,1548698400,93,47.66,-52.73,33.8,19.46
4,tasiilaq,76,GL,1548697800,79,65.61,-37.64,21.2,18.34
5,new norfolk,0,AU,1548698400,63,-42.78,147.06,64.4,10.29
6,hermanus,0,ZA,1548700695,38,-34.42,19.24,83.33,6.42
7,dikson,12,RU,1548700718,82,73.51,80.55,-12.75,12.12
8,port alfred,0,ZA,1548700744,80,-33.59,26.89,73.34,25.43
9,cherskiy,12,RU,1548700810,40,68.75,161.3,-26.07,6.76
10,bonavista,92,CA,1548700901,96,48.65,-53.11,32.66,18.84
11,ormara,0,PK,1548700902,94,25.21,64.64,67.67,3.74
12,mataura,0,NZ,1548700677,83,-46.19,168.86,46.83,2.84
13,ilhabela,0,BR,1548700813,98,-23.78,-45.36,83.42,12.68
14,puerto ayora,20,EC,1548698400,58,-0.74,-90.35,87.8,14.99
15,birnin kebbi,0,NG,1548700903,37,12.45,4.2,82.16,3.62
16,saldanha,8,PT,1548700780,71,41.42,-6.55,45.62,9.89
17,avarua,75,CK,1548698400,94,-21.21,-159.78,80.6,13.87
18,qaqortoq,20,GL,1548697800,51,60.72,-46.03,10.4,5.82
19,terrace,75,CA,1548698400,74,54.52,-128.61,33.8,18.34
20,barrow,12,AR,1548700733,90,-38.31,-60.23,83.06,5.19
21,teluk intan,75,MY,1548698400,94,4.02,101.03,78.8,3.4
22,carnarvon,0,ZA,1548700776,12,-30.97,22.13,81.21,6.42
23,hongjiang,92,CN,1548700776,100,27.21,109.83,40.53,3.85
24,kavieng,56,PG,1548700729,100,-2.57,150.8,83.1,7.65
25,hobart,0,AU,1548698400,63,-42.88,147.33,64.4,10.29
26,adrar,0,DZ,1548698400,25,27.87,-0.29,66.2,8.05
27,marawi,48,PH,1548700729,100,8.0,124.29,63.62,1.83
28,tarnogskiy gorodok,76,RU,1548700905,79,60.5,43.58,10.65,6.42
29,butaritari,92,KI,1548700758,100,3.07,172.79,81.71,13.91
30,leshukonskoye,0,RU,1548700905,77,64.9,45.76,-0.47,6.64
31,bredasdorp,0,ZA,1548698400,78,-34.53,20.04,71.6,17.22
32,saint-augustin,0,FR,1548698400,81,44.83,-0.61,44.6,6.93
33,ushuaia,40,AR,1548698400,71,-54.81,-68.31,57.2,27.51
34,kodyma,88,UA,1548700906,97,48.1,29.13,36.75,14.25
35,vila franca do campo,40,PT,1548698400,67,37.72,-25.43,60.8,4.7
36,saint george,75,GR,1548697800,93,39.45,22.34,46.4,0.72
37,buraydah,75,SA,1548698400,100,26.33,43.97,57.2,4.7
38,praia da vitoria,75,PT,1548698400,82,38.73,-27.07,59.0,7.31
39,oranjemund,68,ZA,1548700735,91,-28.55,16.43,62.58,15.59
40,lebu,0,ET,1548698400,37,8.96,38.73,62.6,9.17
41,flinders,88,AU,1548698400,100,-34.58,150.85,69.8,1.12
42,portland,75,US,1548698160,55,45.52,-122.67,48.92,13.87
43,vaini,0,IN,1548700708,62,15.34,74.49,70.05,8.1
44,cidreira,32,BR,1548700731,89,-30.17,-50.22,85.94,1.16
45,salinopolis,48,BR,1548700817,100,-0.61,-47.36,79.82,7.2
46,lata,0,IN,1548700787,77,30.78,78.62,24.06,2.73
47,touros,40,BR,1548698400,58,-5.2,-35.46,87.8,18.34
48,la reforma,20,GT,1548698400,38,14.8,-91.82,89.6,6.93
49,busselton,0,AU,1548700684,100,-33.64,115.35,61.23,15.48
50,powell river,75,CA,1548698400,93,49.84,-124.52,42.8,3.36
51,auki,0,NG,1548700743,28,12.18,6.51,80.45,5.3
52,cape town,0,ZA,1548698400,60,-33.93,18.42,75.2,10.29
53,deputatskiy,64,RU,1548700742,0,69.3,139.9,-42.59,4.41
54,wilmington,1,US,1548700500,39,39.75,-75.55,34.52,6.42
55,thompson,75,CA,1548698400,60,55.74,-97.86,-25.61,13.87
56,bose,0,IT,1548699600,29,45.46,8.01,39.2,2.24
57,preston,20,GB,1548699600,74,53.76,-2.71,42.8,2.24
58,binzhou,64,CN,1548700910,64,37.38,117.96,19.7,2.95
59,uinskoye,0,RU,1548700910,60,56.88,56.58,-2.4,4.18
60,hithadhoo,80,MV,1548700692,100,-0.6,73.08,82.83,11.45
61,ust-maya,20,RU,1548700780,61,60.42,134.54,-34.13,2.73
62,rikitea,48,PF,1548700675,98,-23.12,-134.97,80.4,13.91
63,ostrovnoy,0,RU,1548700768,80,68.05,39.51,-5.06,17.49
64,cabo san lucas,40,MX,1548697560,44,22.89,-109.91,78.8,4.18
65,castro,75,CL,1548698400,63,-42.48,-73.76,66.2,14.99
66,khatanga,48,RU,1548700713,59,71.98,102.47,-33.05,3.51
67,laguna,75,MX,1548697200,34,27.52,-110.01,68.0,2.24
68,sitka,64,US,1548700754,44,37.17,-99.65,39.14,26.55
69,monster,75,NL,1548699900,80,52.03,4.17,42.8,9.17
70,champerico,5,MX,1548697560,47,16.38,-93.6,77.0,3.36
71,coihaique,40,CL,1548698400,45,-45.58,-72.07,66.2,12.75
72,qaanaaq,0,GL,1548700702,75,77.48,-69.36,-12.17,8.99
73,shetpe,88,KZ,1548700913,86,44.14,52.16,38.42,7.2
74,albany,20,US,1548699540,46,42.65,-73.75,21.02,8.05
75,hilo,40,US,1548697980,59,19.71,-155.08,69.98,20.8
76,los llanos de aridane,75,ES,1548698400,63,28.66,-17.92,64.4,14.99
77,governador valadares,12,BR,1548700811,57,-18.85,-41.95,88.86,7.2
78,sao filipe,92,CV,1548700709,82,14.9,-24.5,76.31,17.05
79,rundu,32,NA,1548700913,79,-17.91,19.77,73.16,5.53
80,karachi,0,PK,1548696300,55,24.87,67.03,62.6,5.82
81,bluff,92,AU,1548700723,74,-23.58,149.07,75.36,14.03
82,vilyuysk,48,RU,1548700914,78,63.75,121.63,-18.15,3.18
83,cap malheureux,75,MU,1548698400,88,-19.98,57.61,78.8,5.41
84,hope,75,CA,1548698400,56,49.38,-121.43,41.0,17.22
85,chokurdakh,64,RU,1548700711,42,70.62,147.9,-26.97,11.12
86,ribeira grande,40,PT,1548698400,77,38.52,-28.7,60.8,8.05
87,rawson,8,AR,1548700787,25,-43.3,-65.11,89.81,17.83
88,pisco,40,PE,1548698400,30,-13.71,-76.2,71.6,11.41
89,tiznit,0,MA,1548700676,80,29.7,-9.73,60.06,3.4
90,viedma,0,AR,1548700915,34,-40.81,-62.99,87.02,4.29
91,griffith,76,AU,1548698400,94,-34.29,146.06,71.6,2.24
92,nha trang,0,VN,1548698400,78,12.24,109.19,73.4,5.82
93,codrington,92,AU,1548698400,93,-28.95,153.24,69.8,5.82
94,beringovskiy,56,RU,1548700717,100,63.05,179.32,-2.81,4.18
95,san luis,20,AR,1548700826,40,-33.3,-66.34,97.73,3.62
96,sur,0,OM,1548700918,100,22.57,59.53,69.96,14.7
97,talara,90,PE,1548698400,290,-4.58,-81.27,62.6,6.93
98,srandakan,24,ID,1548700919,94,-7.94,110.25,72.44,3.62
99,upernavik,68,GL,1548700743,100,72.79,-56.15,10.25,8.88
100,airai,76,TL,1548700722,91,-8.93,125.41,70.55,0.94
101,kyshtovka,24,RU,1548700920,68,56.56,76.62,-14.78,8.99
102,taltal,0,CL,1548700920,73,-25.41,-70.49,72.75,4.41
103,sharlyk,32,RU,1548700920,77,52.93,54.74,7.1,11.68
104,arraial do cabo,0,BR,1548698400,66,-22.97,-42.02,89.6,21.92
105,kapaa,75,US,1548698460,56,22.08,-159.32,69.98,17.22
106,east london,75,ZA,1548698400,83,-33.02,27.91,71.6,20.8
107,tiarei,40,PF,1548698400,83,-17.53,-149.33,80.6,19.46
108,nampula,40,MZ,1548698400,74,-15.12,39.26,78.8,6.93
109,baykit,44,RU,1548700794,63,61.68,96.39,-14.87,10.22
110,vardo,1,US,1548699600,27,39.62,-77.74,35.6,5.82
111,walvis bay,0,NA,1548698400,68,-22.95,14.51,68.0,11.41
112,chuy,12,UY,1548700796,100,-33.69,-53.46,81.44,5.75
113,ancud,75,CL,1548698400,63,-41.87,-73.83,66.2,14.99
114,geraldton,20,CA,1548698400,45,49.72,-86.95,-18.41,4.7
115,komsomolskiy,80,RU,1548700925,75,67.55,63.78,-3.39,11.45
116,tuapse,24,RU,1548700926,100,44.1,39.07,38.55,2.51
117,prudentopolis,80,BR,1548700926,61,-25.21,-50.98,83.51,5.41
118,mahebourg,75,MU,1548698400,88,-20.41,57.7,78.8,3.85
119,pacific grove,1,US,1548699600,71,36.62,-121.92,55.04,4.85
120,pathein,0,MM,1548700926,88,16.78,94.73,69.83,7.43
121,progreso,20,UY,1548698400,63,-34.68,-56.22,91.4,12.75
122,yellowknife,20,CA,1548698400,66,62.45,-114.38,-31.01,3.29
123,huilong,92,CN,1548700927,98,28.89,110.18,36.03,3.06
124,jamestown,0,AU,1548700618,87,-33.21,138.6,53.13,2.62
125,concordia,40,AR,1548698400,63,-31.4,-58.02,93.2,11.41
126,port elizabeth,1,US,1548698160,36,39.31,-74.98,35.06,6.93
127,la ronge,20,CA,1548698400,57,55.1,-105.3,-11.21,18.34
128,zhezkazgan,32,KZ,1548700928,62,47.8,67.71,3.63,17.83
129,lagoa,40,PT,1548698400,67,37.14,-8.45,59.0,9.17
130,puerto quijarro,40,BO,1548698400,59,-19.0,-57.72,91.4,5.82
131,katsuura,75,JP,1548698400,60,33.93,134.5,42.8,14.99
132,mehamn,0,NO,1548697800,66,71.03,27.85,17.6,21.92
133,longyearbyen,75,NO,1548697800,73,78.22,15.63,21.2,10.29
134,colares,75,PT,1548698400,82,38.8,-9.45,55.4,16.11
135,atuona,44,PF,1548700693,100,-9.8,-139.03,79.64,18.28
136,priiskovyy,20,RU,1548700700,42,51.93,116.63,-7.17,7.76
137,hornepayne,0,CA,1548700930,27,49.22,-84.78,-19.19,3.62
138,clyde river,90,CA,1548698400,83,70.47,-68.59,-7.61,21.92
139,burnie,0,AU,1548700930,100,-41.05,145.91,64.43,8.55
140,kaitangata,0,NZ,1548700742,78,-46.28,169.85,49.53,2.95
141,mackay,75,CA,1548698400,79,53.65,-115.58,21.2,8.05
142,chapleau,75,CA,1548698400,55,47.85,-83.4,-20.21,5.82
143,tuatapere,0,NZ,1548700841,87,-46.13,167.69,58.94,11.01
144,tessalit,0,ML,1548700724,22,20.2,1.01,65.96,6.64
145,meulaboh,36,ID,1548700934,100,4.14,96.13,78.51,0.72
146,hamilton,90,CA,1548699240,78,43.26,-79.87,15.8,17.22
147,mount gambier,8,AU,1548698400,93,-37.83,140.78,51.8,3.36
148,inhambane,20,MZ,1548698400,78,-23.87,35.38,77.0,4.7
149,hobyo,0,SO,1548700838,82,5.35,48.53,76.22,18.16
150,vangaindrano,92,MG,1548700935,100,-23.35,47.6,67.67,5.08
151,dunedin,12,NZ,1548700769,100,-45.87,170.5,49.53,3.18
152,broken hill,8,AU,1548698400,69,-31.97,141.45,73.4,5.82
153,yaan,64,NG,1548700936,69,7.38,8.57,82.88,2.17
154,severodvinsk,0,RU,1548698400,84,64.56,39.82,-2.21,4.47
155,comodoro rivadavia,20,AR,1548698400,15,-45.87,-67.48,86.0,29.97
156,georgetown,75,GY,1548698400,74,6.8,-58.16,84.2,11.41
157,melo,24,UY,1548700776,57,-32.37,-54.17,94.98,12.46
158,kahului,20,US,1548698160,53,20.89,-156.47,71.06,20.8
159,tiksi,12,RU,1548700756,0,71.64,128.87,-40.92,2.95
160,tamandare,68,BR,1548700937,85,-8.28,-70.75,83.1,3.4
161,sioux lookout,90,CA,1548699780,76,50.1,-91.92,-7.61,3.36
162,nanortalik,64,GL,1548700937,100,60.14,-45.24,26.4,22.41
163,kabalo,48,CD,1548700937,100,-6.05,26.92,71.4,5.75
164,norman wells,75,CA,1548698400,77,65.28,-126.83,-0.41,4.7
165,aginskoye,20,RU,1548700938,75,51.11,114.54,3.5,13.8
166,kruisfontein,0,ZA,1548700938,79,-34.0,24.73,71.58,18.84
167,panama city,1,US,1548698160,41,30.16,-85.65,59.0,6.93
168,severo-yeniseyskiy,56,RU,1548700938,61,60.37,93.04,-7.94,7.31
169,humaita,75,AR,1548698400,54,-24.93,-65.37,89.6,6.93
170,lavrentiya,12,RU,1548700840,68,65.58,-170.99,2.46,1.16
171,narsaq,20,GL,1548697800,51,60.91,-46.05,10.4,5.82
172,maragogi,88,BR,1548700939,100,-9.01,-35.22,77.39,8.21
173,provideniya,0,RU,1548700732,100,64.42,-173.23,4.26,10.45
174,pokhvistnevo,0,RU,1548700939,82,53.65,52.12,3.68,10.22
175,ranot,100,TH,1548700940,80,7.78,100.32,79.05,7.65
176,tuktoyaktuk,90,CA,1548698400,77,69.44,-133.03,3.2,19.46
177,sungairaya,64,ID,1548700940,87,0.7,108.9,77.57,4.29
178,iqaluit,75,CA,1548699240,76,63.75,-68.52,-7.61,10.29
179,bethel,90,US,1548699120,100,60.79,-161.76,30.92,8.05
180,kikwit,24,CD,1548700940,81,-5.04,18.82,79.05,5.97
181,coquimbo,20,CL,1548698400,68,-29.95,-71.34,69.8,11.41
182,eureka,90,US,1548698100,100,40.8,-124.16,51.08,3.96
183,port-gentil,40,GA,1548698400,83,-0.72,8.78,82.4,4.7
184,nyurba,48,RU,1548700695,73,63.29,118.35,-16.85,3.51
185,sindor,64,RU,1548700942,87,62.87,51.9,8.54,6.08
186,vestmannaeyjar,0,IS,1548694800,100,63.44,-20.27,26.6,4.7
187,namibe,0,AO,1548700945,100,-15.19,12.15,75.5,7.09
188,hambantota,0,LK,1548700807,100,6.12,81.12,75.77,9.55
189,saint anthony,75,US,1548700080,63,43.97,-111.68,28.4,4.7
190,abu samrah,0,SY,1548700946,88,35.3,37.18,46.7,12.24
191,leningradskiy,0,RU,1548700710,84,69.38,178.42,-13.47,1.5
192,todos santos,75,MX,1548697560,16,23.45,-110.23,78.8,5.82
193,barrinha,20,BR,1548698400,34,-21.19,-48.16,93.2,8.05
194,saint-philippe,1,CA,1548698400,37,45.36,-73.48,1.58,5.82
195,hualmay,44,PE,1548700739,71,-11.1,-77.61,79.28,5.08
196,hasaki,0,JP,1548698400,44,35.73,140.83,41.0,14.99
197,san angelo,1,US,1548697860,31,31.46,-100.44,57.02,19.46
198,klaksvik,36,FO,1548699600,98,62.23,-6.59,32.0,1.12
199,bonthe,8,SL,1548700947,58,7.53,-12.5,86.93,4.97
200,naze,64,NG,1548700823,97,5.43,7.07,74.69,5.75
201,nadym,88,RU,1548700947,62,65.53,72.51,-7.49,8.1
202,jawhar,0,IN,1548700948,47,19.91,73.23,63.48,9.55
203,adjumani,88,UG,1548700948,40,3.38,31.79,87.47,3.4
204,farah,92,AF,1548700948,66,32.37,62.11,45.8,3.18
205,carutapera,76,BR,1548700948,90,-1.2,-46.02,81.44,5.19
206,south venice,75,US,1548699300,58,27.05,-82.42,57.92,4.7
207,saint-pierre,90,FR,1548698400,97,48.95,4.24,39.2,9.17
208,nikolskoye,0,RU,1548698400,85,59.7,30.79,10.4,11.18
209,estelle,75,US,1548699300,38,32.87,-97.01,61.7,14.99
210,vao,92,EE,1548700793,84,59.1,26.19,16.95,14.81
211,shasta lake,20,US,1548699300,100,40.68,-122.36,51.98,2.39
212,plettenberg bay,0,ZA,1548700702,88,-34.05,23.37,70.95,22.3
213,sencur,90,SI,1548699600,100,46.25,14.42,33.8,2.24
214,lompoc,1,US,1548699300,69,34.64,-120.46,58.82,3.36
215,hami,68,CN,1548700819,86,42.84,93.51,20.15,3.4
216,beloha,0,MG,1548700777,60,-25.17,45.06,73.16,17.05
217,guerrero negro,32,MX,1548700832,45,27.97,-114.04,66.5,3.29
218,vila velha,20,BR,1548698400,66,-3.71,-38.6,86.0,16.11
219,maputo,40,MZ,1548698400,69,-25.97,32.57,75.2,6.93
220,sao felix do xingu,80,BR,1548700951,92,-6.64,-51.99,76.94,1.83
221,mirnyy,92,RU,1548700951,88,56.57,36.46,17.27,8.66
222,duiwelskloof,88,ZA,1548700951,90,-23.69,30.14,66.41,6.76
223,kribi,12,CM,1548700951,86,2.94,9.91,79.64,5.08
224,salalah,20,OM,1548697800,64,17.01,54.1,75.2,6.93
225,russellville,40,US,1548699300,58,35.28,-93.13,53.6,8.05
226,umea,90,SE,1548699600,92,63.83,20.26,12.2,3.36
227,ponta do sol,0,BR,1548700752,41,-20.63,-46.0,89.81,7.76
228,ontario,1,US,1548700500,39,34.07,-117.65,64.4,6.93
229,san bartolome,20,PH,1548698400,73,14.71,121.03,75.2,6.93
230,nago,40,IT,1548699600,93,45.88,10.89,37.4,2.24
231,kupang,92,ID,1548700953,100,-10.16,123.6,77.7,4.63
232,manavalakurichi,40,IN,1548698400,74,8.13,77.3,82.4,4.7
233,necochea,48,AR,1548700787,93,-38.55,-58.74,81.66,8.43
234,loncoche,0,CL,1548698400,44,-39.37,-72.63,75.2,6.93
235,migori,64,KE,1548700954,85,-1.07,34.47,70.91,6.08
236,dakoro,0,NE,1548700954,59,14.51,6.76,72.75,2.95
237,pilar,40,AR,1548698400,56,-34.46,-58.91,93.2,8.05
238,usinsk,68,RU,1548700955,83,66.0,57.56,9.71,11.68
239,skibbereen,40,IE,1548700200,86,51.55,-9.27,39.2,3.36
240,koutsouras,92,GR,1548700955,100,35.03,25.95,57.9,16.26
241,lakatoro,80,VU,1548700955,100,-16.11,167.42,74.55,6.87
242,magnitka,8,RU,1548700956,60,55.34,59.7,-7.58,3.62
243,zhangjiakou,12,CN,1548700838,44,40.77,114.88,5.66,4.18
244,port macquarie,8,AU,1548698400,88,-31.43,152.91,69.8,5.82
245,cabedelo,90,BR,1548698400,78,-6.97,-34.84,82.4,13.87
246,tarakan,64,ID,1548700956,96,3.3,117.63,80.45,6.76
247,mayumba,44,GA,1548700956,93,-3.44,10.65,81.71,7.2
248,boffa,0,GN,1548700957,56,10.18,-14.04,86.88,3.4
249,kirkwall,75,GB,1548699600,86,58.98,-2.96,37.4,12.75
250,samoded,8,RU,1548700957,75,63.61,40.52,-6.77,2.62
251,santa maria del oro,0,MX,1548700957,13,25.95,-105.37,66.95,4.63
252,kenai,90,US,1548698160,95,60.55,-151.26,33.08,16.11
253,chorozinho,20,BR,1548698400,66,-4.3,-38.5,86.0,16.11
254,esperance,20,TT,1548698400,62,10.24,-61.45,84.2,16.11
255,ola,56,RU,1548700958,100,59.58,151.3,-12.08,10.78
256,fort worth,1,US,1548699300,41,32.75,-97.33,61.7,17.22
257,honningsvag,40,NO,1548696000,78,70.98,25.97,17.6,24.16
258,peniche,75,PT,1548698400,93,39.36,-9.38,55.4,10.29
259,lianzhou,92,CN,1548700960,92,24.79,112.38,48.9,1.95
260,santa rosa,0,AR,1548700720,73,-36.62,-64.29,92.1,3.18
261,guerrero,20,AR,1548698400,49,-24.19,-65.45,89.6,11.41
262,yuli,12,NG,1548700748,32,10.52,9.86,77.25,4.74
263,rimbey,20,CA,1548698400,73,52.64,-114.24,19.4,10.29
264,finspang,90,SE,1548699600,98,58.71,15.77,32.0,3.36
265,cuamba,32,MZ,1548700813,84,-14.8,36.54,71.85,3.06
266,kamina,24,CD,1548700961,95,-8.74,25.0,73.88,1.95
267,ipueiras,44,BR,1548700961,72,-6.66,-37.55,82.88,5.97
268,abu dhabi,0,AE,1548698400,36,24.47,54.37,78.8,5.82
269,mar del plata,0,AR,1548700710,26,-46.43,-67.52,79.1,30.8
270,xai-xai,68,MZ,1548700962,94,-25.04,33.64,76.94,14.14
271,khvoynaya,80,RU,1548700962,79,58.9,34.53,6.56,6.87
272,padang,20,ID,1548698400,88,-0.92,100.36,77.0,2.73
273,bedesa,0,ET,1548700963,48,8.9,40.78,55.2,2.73
274,victoria,75,BN,1548698400,94,5.28,115.24,80.6,6.93
275,muriwai beach,0,NZ,1548700200,88,-36.82,174.45,68.0,11.41
276,iskateley,64,RU,1548700963,78,67.68,53.15,4.71,13.91
277,manokwari,80,ID,1548700751,100,-0.87,134.08,79.95,10.0
278,fortuna,0,ES,1548698400,31,38.18,-1.13,62.6,11.41
279,itarema,36,BR,1548700803,77,-2.92,-39.92,85.35,11.56
280,nome,75,US,1548699300,46,30.04,-94.42,69.98,13.87
281,westport,0,IE,1548700200,93,53.8,-9.52,35.6,8.05
282,muros,75,ES,1548698400,87,42.77,-9.06,50.0,2.24
283,piacabucu,88,BR,1548700965,72,-10.41,-36.43,84.41,12.68
284,straumen,0,NO,1548699600,67,63.87,11.3,19.4,14.99
285,luderitz,48,NA,1548700733,91,-26.65,15.16,62.76,3.96
286,haysville,75,US,1548700500,53,37.56,-97.35,41.0,19.46
287,gao,0,ML,1548700965,19,16.28,-0.04,78.56,6.76
288,grand gaube,75,MU,1548698400,88,-20.01,57.66,78.8,5.41
289,axams,75,AT,1548699600,80,47.23,11.28,30.2,1.12
290,praia,40,BR,1548698400,40,-20.25,-43.81,89.6,13.87
291,lasa,20,CY,1548698400,87,34.92,32.53,55.4,5.82
292,ibra,0,OM,1548700967,93,22.69,58.55,56.51,2.84
293,lipin bor,56,RU,1548700967,76,60.26,37.97,5.03,10.45
294,hofn,90,IS,1548698400,68,64.25,-15.21,26.6,11.41
295,casper,90,US,1548700140,76,42.87,-106.31,19.04,10.29
296,luganville,92,VU,1548700977,100,-15.51,167.18,76.31,8.1
297,alto piquiri,32,BR,1548700981,58,-24.02,-53.44,88.28,9.89
298,wadsworth,1,US,1548700500,42,41.03,-81.73,30.02,9.17
299,shiyan,20,CN,1548700981,79,32.65,110.78,27.53,2.17
300,faya,0,SA,1548698400,36,18.39,42.45,66.2,4.7
301,den helder,40,NL,1548699900,75,52.96,4.76,42.8,11.41
302,tabou,0,CI,1548700982,97,4.42,-7.36,83.96,12.12
303,ponta delgada,40,PT,1548698400,67,37.73,-25.67,60.8,4.7
304,mombetsu,88,JP,1548700983,100,44.35,143.35,27.93,24.87
305,chernyshevskiy,48,RU,1548700710,57,63.01,112.47,-12.26,6.2
306,chapais,1,CA,1548698400,55,49.78,-74.86,-20.21,9.17
307,tonantins,44,BR,1548700983,74,-2.86,-67.77,87.65,6.98
308,urucara,48,BR,1548700925,73,-2.54,-57.76,86.21,3.4
309,kodiak,1,US,1548698100,64,39.95,-94.76,19.04,25.28
310,krasnoye,40,RU,1548698400,100,44.87,39.46,32.0,4.47
311,salym,48,RU,1548700984,65,60.06,71.48,0.26,11.68
312,luena,24,AO,1548700809,81,-11.78,19.91,71.31,2.62
313,trapani,40,IT,1548699600,66,38.02,12.54,53.6,21.92
314,okahandja,44,NA,1548698400,14,-21.98,16.91,84.2,6.93
315,taoudenni,0,ML,1548700985,22,22.68,-3.98,70.5,4.63
316,koumac,0,NC,1548700741,90,-20.56,164.28,74.1,8.77
317,langsa,48,ID,1548700985,96,4.47,97.97,69.33,2.06
318,olinda,90,EC,1548698400,83,-2.03,-79.75,80.6,4.7
319,khor,64,RU,1548700986,70,47.88,134.96,1.79,2.73
320,merida,48,PH,1548700986,92,10.91,124.54,72.93,8.1
321,verkhnevilyuysk,48,RU,1548700986,82,63.45,120.31,-19.05,2.51
322,punta alta,40,AR,1548698400,49,-27.46,-55.82,93.2,5.82
323,iwanai,80,JP,1548700986,100,42.97,140.51,34.01,25.21
324,yarada,32,IN,1548700987,100,17.65,83.27,72.71,16.6
325,saint-leu,88,RE,1548698400,74,-21.15,55.28,80.6,13.87
326,olutanga,0,PH,1548700987,100,7.31,122.85,80.18,13.69
327,kamenka,68,RU,1548700987,91,53.19,44.05,16.37,10.67
328,morondava,12,MG,1548700988,93,-20.3,44.28,81.35,6.42
329,taywarah,24,AF,1548700773,67,33.35,64.42,11.51,1.83
330,erzin,0,TR,1548699600,81,36.95,36.2,51.8,2.39
331,conceicao do araguaia,32,BR,1548700807,97,-8.26,-49.26,83.69,4.41
332,san cristobal,40,EC,1548698400,43,-0.39,-78.55,73.4,14.99
333,severo-kurilsk,68,RU,1548700684,100,50.68,156.12,25.37,20.29
334,trindade,40,BR,1548698400,33,-16.66,-49.49,91.4,14.99
335,princeton,90,US,1548699300,85,41.37,-89.46,21.92,17.22
336,sola,40,NO,1548699600,73,58.89,5.65,26.6,11.45
337,trairi,36,BR,1548700989,100,-3.28,-39.27,81.8,16.71
338,bandar-e lengeh,8,IR,1548698400,83,26.56,54.88,71.6,6.93
339,mankono,0,CI,1548700990,30,8.06,-6.19,89.36,3.4
340,selje,75,NO,1548699600,92,62.05,5.35,33.8,14.99
341,turbat,44,PK,1548700953,89,26.0,63.05,63.03,3.4
342,berlevag,0,NO,1548697800,66,70.86,29.09,14.0,21.92
343,amazar,68,RU,1548700991,78,53.86,120.88,-2.81,2.39
344,aitape,92,PG,1548700991,100,-3.15,142.36,76.8,5.19
345,kysyl-syr,56,RU,1548700991,39,63.9,122.77,-25.94,6.53
346,guasdualito,40,VE,1548698400,34,7.24,-70.73,96.8,10.67
347,yerbogachen,36,RU,1548700693,60,61.28,108.01,-7.49,7.76
348,filadelfia,36,PY,1548700992,44,-22.35,-60.04,95.75,12.35
349,matay,0,EG,1548700992,72,28.42,30.79,46.65,2.84
350,nouadhibou,0,MR,1548700992,43,20.93,-17.03,75.86,12.91
351,bandarbeyla,64,SO,1548700810,100,9.49,50.81,78.11,16.04
352,henderson,1,US,1548699300,31,36.04,-114.98,60.8,6.93
353,bubaque,8,GW,1548700737,71,11.28,-15.83,86.75,12.46
354,poum,90,MK,1548700200,86,41.28,20.71,39.2,9.17
355,kloulklubed,80,PW,1548700753,100,7.04,134.26,80.4,9.22
356,redmond,75,US,1548699300,100,47.67,-122.12,44.6,4.74
357,port said,0,EG,1548700811,45,25.34,30.55,47.78,3.51
358,miraflores,68,CO,1548700994,79,5.2,-73.14,61.23,2.28
359,vitry-le-francois,90,FR,1548698400,64,48.73,4.58,39.2,8.05
360,berdigestyakh,64,RU,1548700994,65,62.1,126.7,-22.61,4.52
361,solwezi,92,ZM,1548700995,97,-12.18,26.4,66.14,4.41
362,ahipara,88,NZ,1548700749,96,-35.17,173.16,67.98,8.88
363,karpogory,0,RU,1548700995,73,64.0,44.44,-2.54,5.41
364,merrill,1,US,1548697980,75,42.03,-121.6,37.94,8.05
365,pedernales,48,EC,1548700996,79,0.07,-80.05,83.73,6.53
366,ginir,0,ET,1548700996,44,7.14,40.71,59.39,5.3
367,mamallapuram,20,IN,1548698400,83,12.63,80.17,77.0,5.82
368,chumikan,0,RU,1548700996,68,54.72,135.31,-15.41,3.74
369,maceio,75,BR,1548698400,74,-9.67,-35.74,80.6,2.24
370,krasnaya gora,90,RU,1548698400,92,53.01,31.6,17.6,11.18
371,caravelas,36,BR,1548700751,100,-17.73,-39.27,81.75,11.79
372,bangassou,12,CF,1548700997,54,4.74,22.82,85.08,2.51
373,palm city,0,PK,1548696600,70,33.58,73.11,44.6,3.18
374,huarmey,36,PE,1548700786,69,-10.07,-78.15,77.03,3.74
375,tabuk,44,PH,1548700997,95,17.41,121.44,56.96,1.16
376,kirakira,100,SB,1548700998,100,-10.46,161.92,80.85,14.25
377,yanam,80,IN,1548700998,89,16.73,82.22,70.01,10.45
378,camacha,75,PT,1548698400,63,33.08,-16.33,60.8,10.29
379,san policarpo,64,PH,1548700998,97,12.18,125.51,74.15,13.02
380,nakhon phanom,0,LA,1548700999,77,17.4,104.79,66.14,4.41
381,hounde,0,BF,1548700999,27,11.5,-3.52,86.61,2.95
382,kattivakkam,20,IN,1548698400,83,13.22,80.32,77.0,5.82
383,bereda,40,ES,1548698400,81,43.27,-7.54,50.0,4.7
384,valleyview,0,CA,1548700774,77,55.07,-117.28,17.99,2.95
385,bambous virieux,75,MU,1548698400,88,-20.34,57.76,78.8,3.85
386,tevaitoa,68,PF,1548701000,100,-16.78,-151.5,82.25,23.31
387,buritizeiro,0,BR,1548701000,37,-17.37,-44.96,94.4,8.99
388,aklavik,90,CA,1548698400,78,68.22,-135.01,10.4,12.75
389,chimbote,8,PE,1548701000,78,-9.08,-78.59,77.48,5.08
390,wenling,0,CN,1548701001,100,28.38,121.38,41.25,6.42
391,axim,0,GH,1548700734,98,4.87,-2.24,82.65,16.04
392,torrington,90,US,1548698100,52,42.06,-104.18,28.94,16.11
393,zabol,0,IR,1548698400,27,31.03,61.49,51.8,6.93
394,makaryev,92,RU,1548701002,91,57.88,43.81,19.2,6.2
395,acapulco,5,MX,1548697560,65,16.86,-99.88,82.4,8.05
396,lodja,8,CD,1548701002,79,-3.52,23.6,79.37,3.85
397,dong hoi,100,VN,1548700764,100,17.48,106.6,69.06,6.87
398,marzuq,0,YE,1548700801,85,14.4,46.47,49.98,2.84
399,manta,68,RO,1548700732,81,45.1,24.1,24.78,2.73
400,kavaratti,0,IN,1548700849,100,10.57,72.64,80.58,6.2
401,saryg-sep,24,RU,1548701003,57,51.49,95.55,-14.15,3.74
402,sibolga,68,ID,1548700825,100,1.74,98.78,69.15,1.95
403,kampong thum,0,KH,1548701003,69,12.71,104.89,71.0,6.64
404,kidal,0,ML,1548701007,18,18.44,1.41,69.83,6.87
405,alice springs,24,AU,1548698400,34,-23.7,133.88,80.6,5.82
406,buchanan,75,LR,1548698400,70,5.88,-10.05,84.2,3.36
407,calabozo,0,VE,1548700805,40,8.92,-67.43,95.84,14.14
408,edd,0,ER,1548701007,42,13.93,41.69,75.68,5.53
409,san quintin,12,PH,1548700754,88,17.54,120.52,59.48,3.51
410,aldan,64,RU,1548701008,72,58.61,125.39,-7.44,2.51
411,sisimiut,48,GL,1548701008,98,66.94,-53.67,8.72,1.61
412,santo domingo,75,DO,1548698400,69,18.48,-69.94,82.4,11.41
413,zakamensk,48,RU,1548701009,63,50.38,103.29,-6.59,4.63
414,half moon bay,1,US,1548698340,87,37.46,-122.43,57.92,5.82
415,ulaanbaatar,75,MN,1548698400,70,47.92,106.92,1.4,2.24
416,kuzino,0,RU,1548701009,53,57.02,59.44,7.37,6.76
417,jijiga,0,ET,1548701010,70,9.35,42.8,55.07,3.51
418,saint-francois,0,FR,1548698400,80,46.42,3.91,35.6,2.24
419,rusape,20,ZW,1548701010,70,-18.53,32.12,66.32,7.43
420,tateyama,80,JP,1548701010,100,36.66,137.31,25.05,5.75
421,conceicao da barra,0,BR,1548701010,84,-18.59,-39.73,83.55,9.22
422,isangel,56,VU,1548700746,100,-19.55,169.27,79.64,16.04
423,pevek,0,RU,1548700765,100,69.7,170.27,-23.55,4.18
424,naron,40,ES,1548698400,81,43.52,-8.15,50.0,4.7
425,solikamsk,76,RU,1548701011,74,59.65,56.78,10.16,8.77
426,springbok,44,ZA,1548701012,26,-29.67,17.88,84.59,9.44
427,zhigansk,56,RU,1548700846,41,66.77,123.37,-26.57,3.4
428,helong,0,CN,1548701012,82,25.94,116.13,40.4,2.39
429,santa fe,24,AR,1548701013,78,-31.62,-60.7,92.6,9.66
430,palo,12,PH,1548701013,100,11.16,124.99,74.15,12.24
431,lagos de moreno,5,MX,1548697500,14,21.36,-101.93,66.2,13.87
432,dzhebariki-khaya,36,RU,1548701013,93,62.22,135.8,-41.51,2.51
433,kailua,75,US,1548698220,90,21.39,-157.74,69.98,18.34
434,owensboro,20,US,1548699300,57,37.77,-87.11,49.64,14.99
435,ixtapa,5,MX,1548697560,53,20.71,-105.21,77.0,5.82
436,esmeralda,0,CL,1548701015,42,-34.33,-70.9,84.95,2.62
437,san juan,8,AR,1548701016,31,-31.54,-68.53,96.96,4.18
438,sinnamary,92,GF,1548700770,100,5.38,-52.96,77.12,11.12
439,puksoozero,32,RU,1548701016,60,62.59,40.61,-7.04,3.29
440,charters towers,92,AU,1548701017,99,-20.07,146.27,71.58,5.41
441,atherton,75,GB,1548699600,81,53.52,-2.49,42.8,4.7
442,safford,1,US,1548697860,33,32.83,-109.71,51.08,4.7
443,tsiroanomandidy,100,MG,1548701017,92,-18.77,46.05,65.73,5.53
444,puerto baquerizo moreno,40,EC,1548698400,78,-0.9,-89.6,82.4,11.41
445,russell,0,AR,1548698400,52,-33.01,-68.8,93.2,6.93
446,ravar,92,IR,1548701018,43,31.27,56.81,58.22,5.75
447,weligama,8,LK,1548701019,100,5.97,80.42,75.5,5.19
448,harer,0,US,1548701019,81,42.19,-111.17,21.45,3.62
449,dingle,24,PH,1548700753,72,11.0,122.67,73.11,15.26
450,biak,80,ID,1548700730,100,-0.91,122.88,75.45,4.07
451,pangoa,88,PE,1548701023,89,-12.12,-73.0,75.63,2.95
452,bathsheba,20,BB,1548698400,58,13.22,-59.52,84.2,19.46
453,kaoma,64,ZM,1548701023,51,-14.8,24.8,79.05,10.67
454,husavik,32,CA,1548700778,84,50.56,-96.99,-2.63,13.69
455,bukachacha,24,RU,1548701023,52,52.99,116.91,-5.78,4.74
456,thaba-tseka,36,LS,1548701024,87,-29.52,28.61,50.7,2.39
457,alpena,90,US,1548700500,83,45.06,-83.43,14.54,13.87
458,royan,0,FR,1548698400,81,45.62,-1.03,44.6,6.93
459,pilig,48,PH,1548701031,91,17.34,121.77,60.78,1.95
460,luis correia,20,BR,1548698400,52,-2.88,-41.67,91.4,12.75
461,mandali,92,IQ,1548701031,100,33.75,45.55,55.43,13.8
462,kudahuvadhoo,0,MV,1548701031,100,2.67,72.89,81.66,10.45
463,sovetskaya,88,RU,1548701032,97,44.78,41.17,33.74,3.18
464,arroio grande,8,BR,1548701032,71,-32.24,-53.09,89.27,9.33
465,puerto carreno,20,CO,1548698400,39,6.19,-67.49,96.8,6.93
466,mikhaylovka,36,RU,1548701035,70,52.96,103.29,-6.32,3.96
467,usta muhammad,0,PK,1548701035,89,28.18,68.05,52.95,3.4
468,faanui,64,PF,1548700448,100,-16.48,-151.75,82.16,24.54
469,rengasdengklok,76,ID,1548701035,100,-6.16,107.3,77.93,11.34
470,muswellbrook,12,AU,1548701021,91,-32.27,150.89,72.93,3.18
471,ngunguru,80,NZ,1548701036,98,-35.62,174.5,70.1,14.81
472,shache,12,CN,1548701036,63,38.42,77.24,10.88,4.07
473,srednekolymsk,56,RU,1548700752,43,67.46,153.71,-27.38,3.18
474,ilulissat,90,GL,1548697800,85,69.22,-51.1,15.8,11.41
475,alofi,40,NU,1548698400,88,-19.06,-169.92,71.6,2.24
476,hokitika,68,NZ,1548701036,100,-42.72,170.96,60.11,2.06
477,altamira,76,BR,1548700996,87,-3.2,-52.21,80.85,4.52
478,yar-sale,88,RU,1548701037,96,66.83,70.83,-8.07,8.55
479,arbazh,76,RU,1548701037,88,57.68,48.31,13.4,9.78
480,homer,90,US,1548697980,69,59.64,-151.54,39.02,6.93
481,talnakh,12,RU,1548700712,65,69.49,88.39,-35.21,3.18
482,booue,24,GA,1548701038,87,-0.09,11.94,80.58,2.51
483,marovoay,40,MG,1548698400,88,-16.11,46.64,77.0,2.24
484,shakawe,20,BW,1548701038,61,-18.36,21.84,79.41,3.74
485,port lincoln,0,AU,1548700775,100,-34.72,135.86,58.13,3.4
486,tirumullaivasal,24,IN,1548701039,89,11.24,79.84,76.67,14.03
487,bridlington,0,GB,1548699600,100,54.08,-0.19,33.8,5.82
488,fauske,75,NO,1548699600,62,67.26,15.4,23.0,18.34
489,high level,75,CA,1548698400,84,58.52,-117.13,-2.21,2.24
490,hohhot,0,CN,1548698400,32,40.81,111.65,8.6,4.47
491,udachnyy,36,RU,1548700832,58,66.42,112.4,-33.9,2.73
492,awbari,0,LY,1548700833,39,26.59,12.77,54.35,6.64
493,rudnya,88,RU,1548701040,90,50.8,44.56,20.42,11.01
494,safakulevo,12,RU,1548701040,57,54.99,62.54,-11.67,7.99
495,seymchan,8,RU,1548700746,0,62.93,152.39,-42.45,2.39
496,chililabombwe,92,ZM,1548701040,96,-12.37,27.84,66.5,6.08
497,verkhovazhye,80,RU,1548701041,89,60.75,42.05,8.0,7.43
498,murray bridge,0,AU,1548701041,100,-35.12,139.28,62.58,2.39
499,umm lajj,0,SA,1548700845,100,25.02,37.27,58.58,9.1
500,zhicheng,0,CN,1548701041,82,35.04,112.59,24.96,2.06
501,lorengau,24,PG,1548700731,100,-2.02,147.27,82.34,9.1
502,octeville,20,FR,1548699600,100,49.63,-1.64,44.6,12.75
503,lagos,20,NG,1548698400,83,6.46,3.39,84.2,4.7
504,kutum,0,SD,1548701042,28,14.2,24.66,68.3,7.99
505,toamasina,75,MG,1548698400,88,-18.17,49.38,75.2,5.82
506,ambunti,92,PG,1548701042,100,-4.22,142.82,72.62,2.17
507,katete,12,UG,1548701043,79,-0.78,29.75,67.76,0.83
508,kurumkan,12,RU,1548701043,63,54.33,110.32,-11.09,2.28
509,takoradi,0,GH,1548701043,94,4.89,-1.75,82.7,12.68
510,maraa,24,BR,1548701043,76,-1.83,-65.37,87.74,6.08
511,shelburne,90,CA,1548699420,71,44.08,-80.2,6.8,11.41
512,qasigiannguit,90,GL,1548697800,85,68.82,-51.19,15.8,11.41
513,kortkeros,68,RU,1548698400,91,61.81,51.56,1.4,4.47
514,niono,0,ML,1548701048,21,14.25,-5.99,82.2,6.2
515,sorland,75,NO,1548699600,74,67.67,12.69,28.4,13.87
516,de pere,90,US,1548700500,75,44.45,-88.06,15.8,17.22
517,samastipur,0,IN,1548701048,65,25.86,85.78,54.62,9.33
518,igarka,20,RU,1548701048,52,67.47,86.57,-30.84,3.96
519,ketchikan,1,US,1548698160,92,55.34,-131.65,37.04,4.7
520,port-cartier,20,CA,1548698400,41,50.03,-66.88,1.4,20.8
521,maningrida,56,AU,1548701049,89,-12.05,134.23,81.75,16.37
522,calama,40,CL,1548698400,35,-22.46,-68.93,73.4,25.28
523,floro,75,NO,1548699600,92,61.6,5.03,28.4,11.41
524,cardston,1,CA,1548698400,72,49.2,-113.32,26.6,5.82
525,demba,64,CD,1548701050,95,-5.47,22.27,75.77,2.06
526,puro,48,PH,1548701050,77,13.13,123.76,72.98,11.01
527,cairns,90,AU,1548698580,94,-16.92,145.77,78.8,5.82
528,rudnogorsk,32,RU,1548701050,53,57.27,103.75,-4.88,10.45
529,port hardy,75,CA,1548698400,93,50.7,-127.42,39.2,3.62
530,sandnessjoen,75,NO,1548699600,58,66.02,12.63,28.4,10.29
531,vrangel,0,RU,1548701051,100,42.73,133.08,26.0,19.39
532,sao domingos do maranhao,44,BR,1548701051,81,-5.58,-44.39,85.49,5.75
533,grindavik,40,IS,1548698400,85,63.84,-22.43,24.8,11.41
534,santa marta,20,CO,1548698400,74,11.24,-74.21,84.2,6.93
535,nuuk,75,GL,1548697800,73,64.17,-51.74,19.4,9.17
536,worthing,0,GB,1548699600,68,50.81,-0.37,35.6,5.82
537,andilamena,92,MG,1548701052,98,-17.01,48.57,65.01,2.06
538,arlit,0,NE,1548700802,24,18.74,7.39,66.59,4.29
539,bosaso,0,SO,1548701053,94,11.28,49.18,78.47,18.84
540,north bend,1,US,1548698160,74,43.41,-124.22,50.0,5.82
541,damietta,0,EG,1548701053,96,31.42,31.81,52.73,5.19
542,shilka,8,RU,1548701062,52,51.85,116.03,-5.78,5.41
543,te anau,12,NZ,1548700821,90,-45.41,167.72,41.16,2.84
544,qandala,0,SO,1548700751,88,11.47,49.87,67.49,6.2
545,hay river,20,CA,1548698400,74,60.82,-115.79,-27.41,2.24
546,jackson,1,US,1548700500,41,35.61,-88.82,59.0,13.87
547,jalu,20,LY,1548700830,27,29.03,21.55,54.75,9.22
548,encheng,8,CN,1548701063,89,22.74,107.09,56.46,4.74
549,jaru,68,BR,1548701063,74,-10.43,-62.48,84.18,4.18
550,southbridge,1,US,1548698160,39,42.08,-72.03,30.92,4.7
551,aconibe,56,GQ,1548701064,91,1.29,10.94,74.46,3.74
552,millinocket,1,US,1548698160,45,45.66,-68.71,10.94,18.34
553,teya,75,MX,1548697740,44,21.05,-89.07,77.0,10.29
554,bolgatanga,0,GH,1548701064,25,10.79,-0.85,89.27,3.62
555,college,1,US,1548698280,94,64.86,-147.8,21.02,3.62
556,ust-kuyga,44,RU,1548701065,0,70.0,135.55,-49.47,3.74
557,bulgan,56,MN,1548701065,60,48.81,103.53,1.79,10.67
558,aksu,0,KZ,1548698400,74,52.04,76.93,-23.81,6.71
559,san patricio,12,PY,1548700704,59,-26.98,-56.83,91.56,5.97
560,sines,80,PT,1548701065,98,37.96,-8.87,58.4,19.73
561,tautira,40,PF,1548700200,83,-17.73,-149.15,78.8,18.34
562,riyadh,40,SA,1548698400,23,24.63,46.72,77.0,11.41
563,roald,75,NO,1548699600,80,62.58,6.12,33.8,8.05
564,shingu,48,JP,1548701066,100,33.72,135.99,47.6,19.51
565,harper,1,US,1548698100,53,30.3,-99.24,66.02,10.29
566,atikokan,80,CA,1548701067,63,48.76,-91.62,-4.2,3.62
567,yumen,0,CN,1548700721,76,40.29,97.04,15.38,14.7
568,golden gate,90,US,1548700500,85,38.36,-88.2,48.2,11.41
569,mo i rana,75,NO,1548699600,84,66.32,14.15,6.8,1.12
570,gimli,32,CA,1548701031,84,50.63,-96.99,-2.63,13.69
571,enugu,76,NG,1548701068,58,6.45,7.5,86.93,5.97
572,fairbanks,1,US,1548698280,94,64.84,-147.72,15.08,3.62
573,emerald,90,AU,1548698400,73,-23.53,148.16,77.0,14.99
574,ebolowa,24,CM,1548701068,84,2.92,11.15,74.33,3.4
575,oron,88,NG,1548701069,79,4.81,8.23,82.61,5.97
576,pochutla,75,MX,1548697260,58,15.74,-96.47,84.2,9.17
577,eberbach,90,DE,1548699600,93,49.46,8.99,39.2,10.29
578,esmeraldas,40,BR,1548698400,40,-19.76,-44.31,89.6,13.87
579,coos bay,1,US,1548698160,74,43.37,-124.22,50.0,5.82
580,mount isa,75,AU,1548698400,94,-20.73,139.49,75.2,9.17
581,aras,0,YE,1548700744,53,14.28,44.38,47.33,2.84
582,vagur,48,FO,1548700825,100,61.47,-6.81,42.38,22.64
583,vanavara,36,RU,1548700802,54,60.35,102.28,-11.36,7.76
584,michalovce,90,SK,1548700200,96,48.75,21.92,32.0,2.24
585,rorvik,0,NO,1548699600,68,64.86,11.24,26.6,12.75
586,alta floresta,68,BR,1548701070,72,-9.87,-56.08,84.86,2.95
587,mersing,92,MY,1548701070,92,2.43,103.84,78.47,14.03
588,kalemie,24,CD,1548701071,88,-5.95,29.2,80.81,8.43
589,margate,0,AU,1548698400,63,-43.03,147.26,64.4,10.29
590,basmat,0,IN,1548701071,75,19.33,77.16,52.86,2.95
591,ulladulla,92,AU,1548698400,100,-35.36,150.48,69.8,1.12
592,ikalamavony,80,MG,1548701071,86,-21.17,46.6,63.98,7.76
593,hovd,0,NO,1548699600,67,63.83,10.7,26.6,14.99
594,beyneu,0,KZ,1548701072,83,45.32,55.19,24.74,2.84
595,port hedland,20,AU,1548698400,83,-20.31,118.58,80.6,5.82
596,rumonge,12,BI,1548701072,99,-3.97,29.44,76.71,6.31
597,gairo,44,TZ,1548701072,86,-6.14,36.87,67.94,8.77
598,yabrud,24,SY,1548701076,89,33.97,36.66,27.03,2.62
599,mizdah,48,LY,1548701076,46,31.45,12.98,56.42,13.8
600,mahdasht,90,IR,1548700200,87,35.73,50.81,50.0,6.93
601,avera,40,US,1548699300,35,33.19,-82.53,59.0,5.82
602,sao joao da barra,0,BR,1548698400,52,-21.64,-41.05,89.6,19.46
603,bay roberts,90,CA,1548698400,97,47.58,-53.28,33.8,19.46
604,curup,8,ID,1548701077,95,-3.47,102.53,67.76,1.83
605,palmer,0,AU,1548698400,82,-34.85,139.16,60.8,2.73
606,namatanai,80,PG,1548700733,100,-3.66,152.44,83.01,11.01
607,zarubino,0,RU,1548701077,84,42.65,131.06,20.06,11.01
608,svetlogorsk,20,RU,1548698400,75,53.14,59.15,-13.01,11.18
609,springdale,90,US,1548698280,93,36.19,-94.13,41.0,17.22
610,mogadishu,0,SO,1548701078,99,2.04,45.34,78.92,23.87
611,wajima,44,JP,1548701078,94,37.4,136.9,39.45,16.37
612,rio gallegos,40,AR,1548698400,20,-51.62,-69.22,64.4,31.09
613,catarman,88,PH,1548701079,100,12.5,124.64,76.67,15.82
614,great yarmouth,20,GB,1548699600,80,52.61,1.73,35.6,8.05
615,kalur kot,0,PK,1548701080,68,32.16,71.27,39.5,0.6
616,basco,90,US,1548700500,61,40.33,-91.2,21.38,27.51
617,souillac,0,FR,1548698400,81,45.6,-0.6,44.6,6.93
618,middle island,1,US,1548698160,42,40.88,-72.94,30.92,10.29
619,rancho palos verdes,75,US,1548698280,67,33.75,-118.37,64.94,2.17
620,baturaja,44,ID,1548701081,82,-4.12,104.17,77.21,6.53
621,sangmelima,76,CM,1548701081,76,2.93,11.98,77.43,3.51
622,mopti,0,ML,1548698400,12,14.49,-4.19,84.2,18.34
623,camargo,0,MX,1548701081,13,27.69,-105.17,66.14,5.19
624,paramonga,48,PE,1548701082,100,-10.68,-77.82,72.8,4.52
625,dhidhdhoo,56,MV,1548701082,100,6.88,73.1,82.16,7.09
626,constitucion,40,MX,1548697260,11,23.99,-104.67,64.4,5.82
627,sistranda,0,NO,1548699600,68,63.73,8.83,26.6,18.34
628,jega,0,NG,1548701082,37,12.22,4.38,83.46,3.74
629,mackenzie,40,CA,1548699240,84,55.34,-123.09,6.8,2.17
630,byron bay,56,AU,1548698400,94,-28.65,153.62,71.6,8.21
631,gat,0,SN,1548698400,15,14.69,-16.54,95.0,6.93
632,doka,0,SD,1548701083,30,13.52,35.76,83.33,11.45
633,seoul,0,KR,1548698400,48,37.57,126.98,24.8,2.24
634,nuevo progreso,40,US,1548699300,55,26.05,-97.95,73.94,19.46
635,susanville,1,US,1548698100,74,40.42,-120.65,39.2,2.84
636,fuling,88,CN,1548701084,100,29.71,107.39,42.56,2.84
637,ferrol,40,ES,1548698400,81,43.48,-8.23,50.0,4.7
638,zheleznodorozhnyy,90,RU,1548698400,92,55.75,38.0,19.4,6.71
639,price,1,US,1548697980,50,39.6,-110.81,39.92,14.99
640,bankura,76,IN,1548701085,92,23.24,87.07,58.58,3.96
641,placido de castro,88,BR,1548701085,100,-10.34,-67.19,79.1,2.84
642,daru,0,SL,1548701085,22,7.99,-10.85,92.87,3.85
643,pimenta bueno,88,BR,1548701086,87,-11.68,-61.19,78.11,2.95
644,wanning,75,AT,1548699600,59,48.64,13.53,35.6,8.05
645,nesterov,48,RU,1548701086,91,54.63,22.57,27.53,13.8
646,belmonte,0,PT,1548701087,66,40.36,-7.35,47.51,8.32
647,karasjok,0,NO,1548699600,69,69.47,25.52,-7.61,10.29
648,moron,12,VE,1548700824,50,10.49,-68.2,86.25,3.18
649,tolbazy,0,RU,1548698400,58,54.01,55.89,-2.21,6.98
650,xunchang,92,CN,1548701088,99,28.45,104.71,43.86,2.51
651,ulaangom,12,MN,1548701088,35,49.98,92.07,-27.42,2.17
652,roma,0,IT,1548699600,86,41.89,12.48,46.4,4.7
653,nagato,40,JP,1548698400,52,34.35,131.14,44.6,9.17
654,praya,80,ID,1548698400,100,-8.71,116.27,75.2,2.24
655,cornelius,1,US,1548699300,47,45.52,-123.06,51.8,13.87
656,kijang,0,KR,1548698400,69,35.24,129.21,32.0,6.93
657,cornwall,1,CA,1548700500,41,45.02,-74.73,1.4,5.82
658,midland,0,US,1548699300,40,32.0,-102.08,55.4,23.04
659,zunyi,92,CN,1548701089,100,27.73,106.92,40.71,5.3
660,perth,20,GB,1548699600,80,56.4,-3.43,35.6,4.7
661,pontes e lacerda,92,BR,1548701090,100,-15.23,-59.33,73.7,6.64
662,ciudad bolivar,0,VE,1548701090,44,8.12,-63.55,93.14,13.47
663,kieta,20,PG,1548701090,100,-6.22,155.63,78.6,3.51
664,devonport,64,AU,1548701091,94,-41.18,146.36,54.3,3.51
665,scarborough,0,GB,1548697800,82,54.28,-0.41,33.8,5.82
666,putten,40,NL,1548699900,93,52.26,5.61,39.2,6.93
667,phuket,20,TH,1548698400,74,7.89,98.4,78.8,6.93
668,sao jose da coroa grande,88,BR,1548701096,100,-8.9,-35.15,77.39,8.21
669,chiang rai,0,TH,1548698400,100,19.9,99.84,62.6,2.17
670,karratha,0,AU,1548701097,93,-20.74,116.85,74.24,4.07
671,belaya gora,48,RU,1548701097,65,68.54,146.19,-35.03,4.41
672,baculin,92,PH,1548701101,100,7.45,126.58,74.06,12.35
673,saint-paul,75,FR,1548698400,94,45.22,1.9,32.0,6.93
674,camapua,24,BR,1548701101,54,-19.53,-54.04,85.53,12.01
675,mokhsogollokh,32,RU,1548701105,64,61.4,128.95,-22.43,2.17
676,songkhla,75,TH,1548698400,88,7.2,100.6,78.8,12.57
677,yelizovo,75,RU,1548698400,72,53.19,158.38,15.8,11.18
678,bima,92,ID,1548701105,100,-8.45,118.73,74.91,3.62
679,baiyin,0,CN,1548698400,66,36.55,104.13,15.8,4.47
680,kalmunai,0,LK,1548701106,96,7.42,81.82,68.16,2.95
681,jennings,75,US,1548699300,53,30.22,-92.66,66.92,10.29
682,hirara,36,JP,1548701106,100,24.8,125.28,68.25,11.68
683,samarai,48,PG,1548701106,100,-10.62,150.67,81.48,14.7
684,honiara,68,SB,1548701107,100,-9.43,159.96,76.13,2.17
685,solnechnyy,0,RU,1548701107,46,50.72,136.64,-15.68,2.39
686,anadyr,0,RU,1548698400,69,64.73,177.51,-9.41,6.71
687,sosua,40,DO,1548698400,70,19.77,-70.52,86.0,9.17
688,lakes entrance,0,AU,1548701107,91,-37.88,147.99,67.26,3.96
689,maralal,0,KE,1548701108,89,1.1,36.7,57.95,3.18
690,broome,20,GB,1548699600,80,52.47,1.45,35.6,8.05
691,lakheri,0,IN,1548701108,78,25.67,76.19,45.3,2.73
692,biltine,0,TD,1548701108,20,14.53,20.93,75.5,8.99
693,iquique,0,CL,1548698400,54,-20.22,-70.14,80.6,9.17
694,karaton,40,ID,1548698400,88,-6.34,106.1,77.0,2.24
695,okato,12,NZ,1548700770,94,-39.19,173.88,62.18,5.53
696,monte patria,0,CL,1548701109,80,-30.69,-70.96,71.9,2.51
697,ridgecrest,75,US,1548698160,52,35.62,-117.67,50.0,2.84
698,neiafu,20,TO,1548698400,94,-18.65,-173.98,69.8,11.23
699,mitchell,75,US,1548697980,66,43.71,-98.03,10.94,13.87
700,bossangoa,0,CF,1548701114,26,6.5,17.45,82.61,6.2
701,baruun-urt,12,MN,1548701114,79,46.68,113.28,13.04,13.02
702,goderich,92,CA,1548700982,99,43.74,-81.71,8.63,20.29
703,bisert,0,RU,1548701115,55,56.85,59.05,6.29,7.65
704,benicarlo,0,ES,1548701115,96,40.42,0.43,57.77,33.93
705,nantucket,1,US,1548700500,54,41.28,-70.1,33.08,16.11
706,okha,8,RU,1548701116,89,53.59,142.95,-10.28,10.22
707,sobolevo,92,RU,1548700758,88,54.43,31.9,18.21,10.22
708,escanaba,90,US,1548700440,77,45.75,-87.06,12.56,13.87
709,santa catarina de tepehuanes,0,MX,1548701116,15,25.34,-105.72,66.0,3.51
710,pemba,75,MZ,1548698400,83,-12.97,40.52,80.6,4.7
711,pangody,80,RU,1548700715,71,65.85,74.49,-10.37,7.2
712,the valley,40,AI,1548698400,57,18.22,-63.06,80.6,13.87
713,barabai,88,ID,1548701117,94,-2.59,115.38,76.71,2.06
714,muzhi,64,RU,1548701117,77,65.4,64.7,-11.81,5.41
715,minab,32,IR,1548700200,82,27.15,57.07,68.0,6.93
716,koroni,40,GR,1548699600,87,36.8,21.96,53.6,4.7
717,vryburg,24,ZA,1548701118,30,-26.96,24.73,83.42,8.66
718,prince rupert,1,CA,1548698400,93,54.32,-130.32,37.4,3.36
719,semey,0,KZ,1548701118,68,50.41,80.25,-22.88,2.17
720,macau,12,BR,1548701118,47,-5.11,-36.64,92.51,9.1
721,sterling,1,US,1548700500,37,39.0,-77.4,37.4,4.7
722,port augusta,0,AU,1548698400,88,-32.49,137.76,66.2,6.93
723,kokopo,44,PG,1548701119,100,-4.34,152.27,80.18,4.41
724,arkhara,0,RU,1548701119,66,49.42,130.09,-8.84,2.51
725,hede,92,SE,1548699600,100,60.45,15.49,24.8,3.36
726,baikunthpur,0,IN,1548701120,76,23.26,82.56,43.5,3.62
727,katy,20,US,1548699300,52,29.79,-95.82,69.08,14.99
728,kudat,75,MY,1548698400,83,6.89,116.84,78.8,5.82
729,indramayu,24,ID,1548701120,90,-4.05,103.78,67.08,2.73
730,san pedro,36,AR,1548701121,65,-33.68,-59.66,92.1,8.77
731,abha,0,SA,1548698400,36,18.22,42.5,66.2,4.7
732,chikmagalur,0,IN,1548701122,77,13.32,75.78,63.26,2.17
733,bayan,0,MN,1548701122,53,47.25,107.54,-3.62,7.99
734,lashio,0,MM,1548701122,89,22.93,97.75,53.76,1.95
735,ugra,92,RU,1548701123,88,54.78,34.32,19.52,6.76
736,dwarka,0,IN,1548698400,66,28.58,77.04,50.0,4.7
737,gasa,8,BT,1548701123,67,27.91,89.73,-10.46,3.51
738,guozhen,92,CN,1548701123,98,29.3,113.14,39.77,5.19
739,voh,0,NC,1548701123,100,-20.95,164.69,76.98,11.9
740,opuwo,0,NA,1548700766,18,-18.06,13.84,83.69,9.66
741,wainwright,32,CA,1548701004,88,52.84,-110.86,13.4,12.12
742,saint-georges,0,CA,1548701124,33,46.12,-70.67,5.43,7.54
743,newport,75,GB,1548699600,85,51.59,-3.0,41.0,8.05
744,gamba,0,CN,1548701125,51,28.28,88.52,-11.27,6.2
745,caxito,20,BR,1548698400,49,-22.65,-42.51,89.6,24.16
746,islamkot,0,PK,1548701125,52,24.7,70.18,49.94,6.98
747,benghazi,32,LY,1548701125,99,32.12,20.07,63.03,20.96
748,tura,92,IN,1548701034,66,25.52,90.21,60.65,4.41
749,santa isabel,75,CO,1548698400,62,4.71,-75.1,84.2,11.41
750,panalingaan,8,PH,1548701126,90,8.78,117.42,77.3,8.66
751,sibu,75,MY,1548698400,100,2.29,111.83,77.0,3.18
752,areosa,20,PT,1548698400,81,41.72,-8.86,53.6,6.93
753,marsh harbour,20,BS,1548701126,100,26.54,-77.06,71.99,25.88
754,bara,24,NG,1548701127,40,10.41,10.6,80.31,2.73
755,san gabriel,1,US,1548700500,39,34.1,-118.11,64.94,6.93
756,lazaro cardenas,20,MX,1548697560,16,28.39,-105.62,62.6,4.29
757,bowen,75,AU,1548698400,100,-20.01,148.25,75.2,3.36
758,pimentel,24,BR,1548701128,58,-3.7,-45.5,91.07,6.53
759,rocha,48,UY,1548700926,87,-34.48,-54.34,87.92,10.67
760,craig,1,US,1548699300,59,40.52,-107.55,26.96,10.29
761,coruripe,24,BR,1548701128,100,-10.12,-36.18,80.27,7.76
762,tonneins,75,FR,1548698400,81,44.39,0.31,42.8,5.82
763,mwene-ditu,80,CD,1548701129,92,-7.01,23.45,72.3,5.64
764,along,48,IN,1548701129,96,28.17,94.8,47.69,1.72
765,mawlaik,48,MM,1548701129,90,23.63,94.42,63.3,1.95
766,ugoofaaru,0,MV,1548700824,99,5.67,73.0,82.83,6.76
767,san felipe,0,CL,1548701129,69,-32.75,-70.73,76.04,1.5
768,krasnoarmeysk,90,RU,1548698400,85,56.12,38.15,19.4,8.95
769,pueblo nuevo,0,MX,1548701130,39,23.99,-106.96,78.02,2.62
770,freetown,75,BS,1548698400,73,26.61,-78.36,69.8,13.87
771,itoman,40,JP,1548700200,63,26.12,127.67,64.4,9.17
772,fasa,24,IR,1548698400,44,28.94,53.65,57.2,9.17
773,havelock,90,US,1548698280,85,34.88,-76.9,44.96,9.17
774,edgewood,75,US,1548699660,38,39.42,-76.29,33.98,4.7
775,tarata,40,PE,1548698400,51,-17.47,-70.03,82.4,14.99
776,nogliki,44,RU,1548701132,100,51.8,143.14,-0.29,11.23
777,dogbo,88,CM,1548701132,76,4.43,14.33,81.21,2.73
778,maine-soroa,0,NE,1548701132,24,13.21,12.02,74.78,5.3
779,richards bay,76,ZA,1548700791,78,-28.77,32.06,71.76,9.78
780,truth or consequences,1,US,1548697980,28,33.13,-107.25,51.98,10.29
781,gravatai,40,BR,1548698400,41,-29.94,-50.99,96.8,10.29
782,egvekinot,8,RU,1548700754,38,66.32,-179.17,-25.8,2.17
783,iquitos,75,PE,1548698400,78,-3.75,-73.25,82.4,8.05
784,bestobe,0,KZ,1548701134,37,52.5,73.1,-24.41,3.62
785,nakamura,20,JP,1548700200,91,35.17,136.87,41.0,38.03
786,tokur,0,RU,1548701134,59,53.13,132.9,-21.98,2.39
787,luau,24,CD,1548701134,91,-10.7,22.23,72.3,2.62
788,west plains,90,US,1548697980,70,36.73,-91.85,44.06,13.87
789,alyangula,56,AU,1548698400,78,-13.85,136.42,82.4,8.05
790,corinto,44,BR,1548701135,77,-18.36,-44.46,83.51,3.4
791,fukue,20,JP,1548700200,100,35.03,136.69,41.0,38.03
792,santiago del estero,0,AR,1548701135,64,-27.8,-64.26,95.3,13.02
793,llanes,88,ES,1548701136,97,43.42,-4.75,39.05,5.97
794,raudeberg,75,NO,1548699600,92,61.99,5.14,28.4,11.41
